;GPS@@@
;Ver=1.1.0
;DIP=2009-00152-00
;Date=2018-Sep-09 11:55:43
;----------------------------------------------------------------------------------------------------------------------------------------------------------------------------------------
traces,odo_tick,pos(m),time_elapsed(s),GPS
1,0,0.000000,-0.002329,"$GPGGA,185549.00,4143.86789945,N,12130.62797284,W,1,12,0.8,1389.062,M,-22.597,M,,*60"
1,0,0.000000,0.049045,"$GNGSA,A,3,25,5,29,2,21,26,,,,,,,1.8,0.8,1.6*26"
1,0,0.000000,0.102578,"$GNGSA,A,3,79,81,88,66,80,82,,,,,,,1.8,0.8,1.6*2F"
1,0,0.000000,0.194916,"$GPRMC,185549.00,A,4143.86789945,N,12130.62797284,W,0.008,0.000,090918,999.9000,E,A*12"
1,0,0.000000,0.255934,"$GPGLL,4143.86789945,N,12130.62797284,W,185549.00,A,A*7F"
1,0,0.000000,0.997660,"$GPGGA,185550.00,4143.86790052,N,12130.62797285,W,1,12,0.8,1389.071,M,-22.597,M,,*6C"
1,0,0.000000,1.049077,"$GNGSA,A,3,25,5,29,2,21,26,,,,,,,1.8,0.8,1.6*26"
1,0,0.000000,1.102586,"$GNGSA,A,3,79,81,88,66,80,82,,,,,,,1.8,0.8,1.6*2F"
1,0,0.000000,1.195954,"$GPRMC,185550.00,A,4143.86790052,N,12130.62797285,W,0.013,12.763,090918,999.9000,E,A*27"
1,0,0.000000,1.256862,"$GPGLL,4143.86790052,N,12130.62797285,W,185550.00,A,A*71"
1,0,0.000000,1.997769,"$GPGGA,185551.00,4143.86790081,N,12130.62797751,W,1,12,0.8,1389.082,M,-22.597,M,,*63"
1,0,0.000000,2.049173,"$GNGSA,A,3,25,5,29,2,21,26,,,,,,,1.8,0.8,1.6*26"
1,0,0.000000,2.102665,"$GNGSA,A,3,79,81,88,66,80,82,,,,,,,1.8,0.8,1.6*2F"
1,0,0.000000,2.197093,"$GPRMC,185551.00,A,4143.86790081,N,12130.62797751,W,0.012,207.332,090918,999.9000,E,A*13"
1,0,0.000000,2.257970,"$GPGLL,4143.86790081,N,12130.62797751,W,185551.00,A,A*72"
1,0,0.000000,3.000374,"$GPGGA,185552.00,4143.86790016,N,12130.62797641,W,1,12,0.8,1389.088,M,-22.597,M,,*64"
2,0,0.000000,3.051781,"$GNGSA,A,3,25,5,29,2,21,26,,,,,,,1.8,0.8,1.6*26"
2,0,0.000000,3.119089,"$GNGSA,A,3,79,81,88,66,80,82,,,,,,,1.8,0.8,1.6*2F"
2,0,0.000000,3.199724,"$GPRMC,185552.00,A,4143.86790016,N,12130.62797641,W,0.015,116.995,090918,999.9000,E,A*1D"
2,0,0.000000,3.260568,"$GPGLL,4143.86790016,N,12130.62797641,W,185552.00,A,A*7F"
2,0,0.000000,3.997613,"$GPGGA,185553.00,4143.86789980,N,12130.62797650,W,1,12,0.8,1389.088,M,-22.597,M,,*6B"
2,0,0.000000,4.049035,"$GNGSA,A,3,25,5,29,2,21,26,,,,,,,1.8,0.8,1.6*26"
2,0,0.000000,4.102523,"$GNGSA,A,3,79,81,88,66,80,82,,,,,,,1.8,0.8,1.6*2F"
2,0,0.000000,4.196952,"$GPRMC,185553.00,A,4143.86789980,N,12130.62797650,W,0.028,267.268,090918,999.9000,E,A*10"
2,0,0.000000,4.257809,"$GPGLL,4143.86789980,N,12130.62797650,W,185553.00,A,A*70"
2,0,0.000000,4.997735,"$GPGGA,185554.00,4143.86789985,N,12130.62797707,W,1,12,0.8,1389.084,M,-22.597,M,,*66"
2,0,0.000000,5.049154,"$GNGSA,A,3,25,5,29,2,21,26,,,,,,,1.8,0.8,1.6*26"
2,0,0.000000,5.102653,"$GNGSA,A,3,79,81,88,66,80,82,,,,,,,1.8,0.8,1.6*2F"
2,0,0.000000,5.196832,"$GPRMC,185554.00,A,4143.86789985,N,12130.62797707,W,0.011,96.736,090918,999.9000,E,A*29"
2,0,0.000000,5.256887,"$GPGLL,4143.86789985,N,12130.62797707,W,185554.00,A,A*71"
2,0,0.000000,5.997616,"$GPGGA,185555.00,4143.86790041,N,12130.62797673,W,1,12,0.8,1389.084,M,-22.597,M,,*6C"
3,0,0.000000,6.048963,"$GNGSA,A,3,25,5,29,2,21,26,,,,,,,1.8,0.8,1.6*26"
3,0,0.000000,6.102496,"$GNGSA,A,3,79,81,88,66,80,82,,,,,,,1.8,0.8,1.6*2F"
3,0,0.000000,6.195842,"$GPRMC,185555.00,A,4143.86790041,N,12130.62797673,W,0.115,62.207,090918,999.9000,E,A*2A"
3,0,0.000000,6.256673,"$GPGLL,4143.86790041,N,12130.62797673,W,185555.00,A,A*7B"
6,0,0.000000,6.997450,"$GPGGA,185556.00,4143.86790600,N,12130.62797170,W,1,12,0.8,1389.084,M,-22.597,M,,*68"
7,0,0.000000,7.048833,"$GNGSA,A,3,25,5,29,2,21,26,,,,,,,1.8,0.8,1.6*26"
7,0,0.000000,7.102368,"$GNGSA,A,3,79,81,88,66,80,82,,,,,,,1.8,0.8,1.6*2F"
8,0,0.000000,7.194731,"$GPRMC,185556.00,A,4143.86790600,N,12130.62797170,W,0.237,0.177,090918,999.9000,E,A*1D"
8,0,0.000000,7.255511,"$GPGLL,4143.86790600,N,12130.62797170,W,185556.00,A,A*7F"
13,0,0.000000,7.997457,"$GPGGA,185557.00,4143.86792002,N,12130.62795884,W,1,12,0.8,1389.085,M,-22.597,M,,*6E"
13,0,0.000000,8.048987,"$GNGSA,A,3,25,5,29,2,21,26,,,,,,,1.8,0.8,1.6*26"
14,0,0.000000,8.102462,"$GNGSA,A,3,79,81,88,66,80,82,,,,,,,1.8,0.8,1.6*2F"
14,0,0.000000,8.194761,"$GPRMC,185557.00,A,4143.86792002,N,12130.62795884,W,0.422,9.175,090918,999.9000,E,A*13"
15,0,0.000000,8.255620,"$GPGLL,4143.86792002,N,12130.62795884,W,185557.00,A,A*78"
20,0,0.000000,8.997329,"$GPGGA,185558.00,4143.86794515,N,12130.62794212,W,1,12,0.8,1389.083,M,-22.597,M,,*66"
20,0,0.000000,9.048813,"$GNGSA,A,3,25,5,29,2,21,26,,,,,,,1.8,0.8,1.6*26"
20,0,0.000000,9.102305,"$GNGSA,A,3,79,81,88,66,80,82,,,,,,,1.8,0.8,1.6*2F"
21,0,0.000000,9.195636,"$GPRMC,185558.00,A,4143.86794515,N,12130.62794212,W,0.342,17.667,090918,999.9000,E,A*27"
21,0,0.000000,9.256522,"$GPGLL,4143.86794515,N,12130.62794212,W,185558.00,A,A*76"
22,0,0.000000,9.997456,"$GPGGA,185559.00,4143.86797407,N,12130.62792290,W,1,12,0.8,1389.082,M,-22.597,M,,*6B"
22,0,0.000000,10.048837,"$GNGSA,A,3,25,5,29,2,21,26,,,,,,,1.8,0.8,1.6*26"
22,0,0.000000,10.102409,"$GNGSA,A,3,79,81,88,66,80,82,,,,,,,1.8,0.8,1.6*2F"
22,0,0.000000,10.195762,"$GPRMC,185559.00,A,4143.86797407,N,12130.62792290,W,0.084,42.040,090918,999.9000,E,A*21"
22,0,0.000000,10.256579,"$GPGLL,4143.86797407,N,12130.62792290,W,185559.00,A,A*7A"
22,0,0.000000,10.997353,"$GPGGA,185600.00,4143.86799864,N,12130.62790571,W,1,12,0.8,1389.080,M,-22.597,M,,*6B"
22,0,0.000000,11.048695,"$GNGSA,A,3,25,5,29,2,21,26,,,,,,,1.8,0.8,1.6*26"
22,0,0.000000,11.102199,"$GNGSA,A,3,79,81,88,66,80,82,,,,,,,1.8,0.8,1.6*2F"
22,0,0.000000,11.196671,"$GPRMC,185600.00,A,4143.86799864,N,12130.62790571,W,0.035,241.824,090918,999.9000,E,A*12"
22,0,0.000000,11.257509,"$GPGLL,4143.86799864,N,12130.62790571,W,185600.00,A,A*78"
22,0,0.000000,11.997356,"$GPGGA,185601.00,4143.86801820,N,12130.62789225,W,1,12,0.8,1389.079,M,-22.597,M,,*6C"
22,0,0.000000,12.048751,"$GNGSA,A,3,25,5,29,2,21,26,,,,,,,1.8,0.8,1.6*26"
22,0,0.000000,12.102300,"$GNGSA,A,3,79,81,88,66,80,82,,,,,,,1.8,0.8,1.6*2F"
22,0,0.000000,12.196714,"$GPRMC,185601.00,A,4143.86801820,N,12130.62789225,W,0.034,324.125,090918,999.9000,E,A*18"
23,0,0.000000,12.257540,"$GPGLL,4143.86801820,N,12130.62789225,W,185601.00,A,A*79"
23,0,0.000000,13.000152,"$GPGGA,185602.00,4143.86803417,N,12130.62788123,W,1,12,0.8,1389.078,M,-22.597,M,,*60"
23,0,0.000000,13.051563,"$GNGSA,A,3,25,5,29,2,21,26,,,,,,,1.8,0.8,1.6*26"
23,0,0.000000,13.105055,"$GNGSA,A,3,79,81,88,66,80,82,,,,,,,1.8,0.8,1.6*2F"
23,0,0.000000,13.199539,"$GPRMC,185602.00,A,4143.86803417,N,12130.62788123,W,0.016,207.288,090918,999.9000,E,A*11"
23,0,0.000000,13.260383,"$GPGLL,4143.86803417,N,12130.62788123,W,185602.00,A,A*74"
23,0,0.000000,13.997410,"$GPGGA,185603.00,4143.86804734,N,12130.62787188,W,1,12,0.8,1389.077,M,-22.597,M,,*65"
23,0,0.000000,14.048820,"$GNGSA,A,3,25,5,29,2,21,26,,,,,,,1.8,0.8,1.6*26"
23,0,0.000000,14.102326,"$GNGSA,A,3,79,81,88,66,80,82,,,,,,,1.8,0.8,1.6*2F"
23,0,0.000000,14.196756,"$GPRMC,185603.00,A,4143.86804734,N,12130.62787188,W,0.010,241.680,090918,999.9000,E,A*13"
23,0,0.000000,14.257597,"$GPGLL,4143.86804734,N,12130.62787188,W,185603.00,A,A*7E"
23,0,0.000000,14.997202,"$GPGGA,185604.00,4143.86805846,N,12130.62786395,W,1,12,0.8,1389.077,M,-22.597,M,,*66"
23,0,0.000000,15.048616,"$GNGSA,A,3,25,5,29,2,21,26,,,,,,,1.8,0.8,1.6*26"
23,0,0.000000,15.102071,"$GNGSA,A,3,79,81,88,66,80,82,,,,,,,1.8,0.8,1.6*2F"
23,0,0.000000,15.196498,"$GPRMC,185604.00,A,4143.86805846,N,12130.62786395,W,0.017,313.363,090918,999.9000,E,A*19"
23,0,0.000000,15.257359,"$GPGLL,4143.86805846,N,12130.62786395,W,185604.00,A,A*7D"
23,0,0.000000,15.997627,"$GPGGA,185605.00,4143.86806816,N,12130.62785719,W,1,12,0.8,1389.078,M,-22.597,M,,*6D"
23,0,0.000000,16.049099,"$GNGSA,A,3,25,5,29,2,21,26,,,,,,,1.8,0.8,1.6*26"
23,0,0.000000,16.102498,"$GNGSA,A,3,79,81,88,66,80,82,,,,,,,1.8,0.8,1.6*2F"
24,0,0.000000,16.195991,"$GPRMC,185605.00,A,4143.86806816,N,12130.62785719,W,0.012,77.408,090918,999.9000,E,A*23"
24,0,0.000000,16.256777,"$GPGLL,4143.86806816,N,12130.62785719,W,185605.00,A,A*79"
24,0,0.000000,16.997211,"$GPGGA,185606.00,4143.86807679,N,12130.62785125,W,1,12,0.8,1389.078,M,-22.597,M,,*61"
24,0,0.000000,17.048636,"$GNGSA,A,3,25,5,29,2,21,26,,,,,,,1.8,0.8,1.6*26"
24,0,0.000000,17.102184,"$GNGSA,A,3,79,81,88,66,80,82,,,,,,,1.8,0.8,1.6*2F"
24,0,0.000000,17.195513,"$GPRMC,185606.00,A,4143.86807679,N,12130.62785125,W,0.091,20.801,090918,999.9000,E,A*23"
24,0,0.000000,17.256393,"$GPGLL,4143.86807679,N,12130.62785125,W,185606.00,A,A*75"
24,0,0.000000,17.997152,"$GPGGA,185607.00,4143.86808531,N,12130.62784549,W,1,12,0.8,1389.078,M,-22.597,M,,*6F"
24,0,0.000000,18.048562,"$GNGSA,A,3,25,5,29,2,21,26,,,,,,,1.8,0.8,1.6*26"
25,0,0.000000,18.102129,"$GNGSA,A,3,79,81,88,66,80,82,,,,,,,1.8,0.8,1.6*2F"
25,0,0.000000,18.196549,"$GPRMC,185607.00,A,4143.86808531,N,12130.62784549,W,0.013,234.221,090918,999.9000,E,A*18"
25,0,0.000000,18.257404,"$GPGLL,4143.86808531,N,12130.62784549,W,185607.00,A,A*7B"
25,0,0.000000,18.997199,"$GPGGA,185608.00,4143.86809312,N,12130.62784014,W,1,12,0.8,1389.078,M,-22.597,M,,*6B"
25,0,0.000000,19.048565,"$GNGSA,A,3,25,5,29,2,21,26,,,,,,,1.8,0.8,1.6*26"
25,0,0.000000,19.102068,"$GNGSA,A,3,79,81,88,66,80,82,,,,,,,1.8,0.8,1.6*2F"
26,0,0.000000,19.195447,"$GPRMC,185608.00,A,4143.86809312,N,12130.62784014,W,0.087,28.787,090918,999.9000,E,A*27"
26,0,0.000000,19.256289,"$GPGLL,4143.86809312,N,12130.62784014,W,185608.00,A,A*7F"
27,0,0.000000,19.997146,"$GPGGA,185609.00,4143.86810120,N,12130.62783433,W,1,12,0.8,1389.077,M,-22.597,M,,*68"
28,0,0.000000,20.048565,"$GNGSA,A,3,25,5,29,2,21,26,,,,,,,1.8,0.8,1.6*26"
28,0,0.000000,20.102077,"$GNGSA,A,3,79,81,88,66,80,82,,,,,,,1.8,0.8,1.6*2F"
28,0,0.000000,20.195464,"$GPRMC,185609.00,A,4143.86810120,N,12130.62783433,W,0.145,18.826,090918,999.9000,E,A*23"
28,0,0.000000,20.256331,"$GPGLL,4143.86810120,N,12130.62783433,W,185609.00,A,A*73"
31,0,0.000000,20.997093,"$GPGGA,185610.00,4143.86811101,N,12130.62782780,W,1,12,0.8,1389.078,M,-22.597,M,,*67"
32,0,0.000000,21.048497,"$GNGSA,A,3,25,5,29,2,21,26,,,,,,,1.8,0.8,1.6*26"
32,0,0.000000,21.101951,"$GNGSA,A,3,79,81,88,66,80,82,,,,,,,1.8,0.8,1.6*2F"
32,0,0.000000,21.195390,"$GPRMC,185610.00,A,4143.86811101,N,12130.62782780,W,0.230,21.095,090918,999.9000,E,A*28"
32,0,0.000000,21.256208,"$GPGLL,4143.86811101,N,12130.62782780,W,185610.00,A,A*73"
35,0,0.000000,21.997239,"$GPGGA,185611.00,4143.86812247,N,12130.62782047,W,1,12,0.8,1389.077,M,-22.597,M,,*67"
36,0,0.000000,22.048628,"$GNGSA,A,3,25,5,29,2,21,26,,,,,,,1.8,0.8,1.6*26"
36,0,0.000000,22.102090,"$GNGSA,A,3,79,81,88,66,80,82,,,,,,,1.8,0.8,1.6*2F"
37,0,0.000000,22.195501,"$GPRMC,185611.00,A,4143.86812247,N,12130.62782047,W,0.273,19.705,090918,999.9000,E,A*25"
37,0,0.000000,22.256380,"$GPGLL,4143.86812247,N,12130.62782047,W,185611.00,A,A*7C"
39,0,0.000000,22.999911,"$GPGGA,185612.00,4143.86813576,N,12130.62781141,W,1,12,0.8,1389.075,M,-22.597,M,,*66"
39,0,0.000000,23.051301,"$GNGSA,A,3,25,5,29,2,21,26,,,,,,,1.8,0.8,1.6*26"
40,0,0.000000,23.104831,"$GNGSA,A,3,79,81,88,66,80,82,,,,,,,1.8,0.8,1.6*2F"
40,0,0.000000,23.205716,"$GPRMC,185612.00,A,4143.86813576,N,12130.62781141,W,0.040,356.946,090918,999.9000,E,A*15"
40,0,0.000000,23.261756,"$GPGLL,4143.86813576,N,12130.62781141,W,185612.00,A,A*7F"
44,0,0.000000,23.997049,"$GPGGA,185613.00,4143.86814972,N,12130.62780129,W,1,12,0.8,1389.073,M,-22.597,M,,*61"
44,0,0.000000,24.048500,"$GNGSA,A,3,25,5,29,2,21,26,,,,,,,1.8,0.8,1.6*26"
44,0,0.000000,24.101969,"$GNGSA,A,3,79,81,88,66,80,82,,,,,,,1.8,0.8,1.6*2F"
45,0,0.000000,24.195354,"$GPRMC,185613.00,A,4143.86814972,N,12130.62780129,W,0.364,26.554,090918,999.9000,E,A*2A"
45,0,0.000000,24.256158,"$GPGLL,4143.86814972,N,12130.62780129,W,185613.00,A,A*7E"
48,0,0.000000,24.997001,"$GPGGA,185614.00,4143.86816557,N,12130.62778987,W,1,12,0.8,1389.071,M,-22.597,M,,*66"
48,0,0.000000,25.048398,"$GNGSA,A,3,25,5,29,2,21,26,,,,,,,1.8,0.8,1.6*26"
48,0,0.000000,25.101944,"$GNGSA,A,3,79,81,88,66,80,82,,,,,,,1.8,0.8,1.6*2F"
49,0,0.000000,25.195331,"$GPRMC,185614.00,A,4143.86816557,N,12130.62778987,W,0.183,31.048,090918,999.9000,E,A*2A"
49,0,0.000000,25.256150,"$GPGLL,4143.86816557,N,12130.62778987,W,185614.00,A,A*7B"
51,0,0.000000,32.999609,"$GPGGA,185622.00,4143.86827184,N,12130.62770792,W,1,12,0.8,1389.055,M,-22.597,M,,*6F"
51,0,0.000000,33.050973,"$GNGSA,A,3,25,5,29,2,21,26,,,,,,,1.8,0.8,1.6*26"
51,0,0.000000,33.104521,"$GNGSA,A,3,79,81,88,66,80,82,,,,,,,1.8,0.8,1.6*2F"
51,0,0.000000,33.196806,"$GPRMC,185622.00,A,4143.86827184,N,12130.62770792,W,0.005,0.000,090918,999.9000,E,A*14"
51,0,0.000000,33.257677,"$GPGLL,4143.86827184,N,12130.62770792,W,185622.00,A,A*74"
51,0,0.000000,33.996886,"$GPGGA,185623.00,4143.86828137,N,12130.62770056,W,1,12,0.8,1389.054,M,-22.597,M,,*67"
51,0,0.000000,34.048271,"$GNGSA,A,3,25,5,29,2,21,26,,,,,,,1.8,0.8,1.6*26"
51,0,0.000000,34.101783,"$GNGSA,A,3,79,81,88,66,80,82,,,,,,,1.8,0.8,1.6*2F"
51,0,0.000000,34.196233,"$GPRMC,185623.00,A,4143.86828137,N,12130.62770056,W,0.010,303.537,090918,999.9000,E,A*18"
52,0,0.000000,34.257061,"$GPGLL,4143.86828137,N,12130.62770056,W,185623.00,A,A*7D"
52,0,0.000000,34.996818,"$GPGGA,185624.00,4143.86829031,N,12130.62769367,W,1,12,0.8,1389.052,M,-22.597,M,,*69"
52,0,0.000000,35.048203,"$GNGSA,A,3,25,5,29,2,21,26,,,,,,,1.8,0.8,1.6*26"
52,0,0.000000,35.101735,"$GNGSA,A,3,79,81,88,66,80,82,,,,,,,1.8,0.8,1.6*2F"
52,0,0.000000,35.194088,"$GPRMC,185624.00,A,4143.86829031,N,12130.62769367,W,0.007,0.000,090918,999.9000,E,A*17"
52,0,0.000000,35.254908,"$GPGLL,4143.86829031,N,12130.62769367,W,185624.00,A,A*75"
52,0,0.000000,35.996789,"$GPGGA,185625.00,4143.86829872,N,12130.62768716,W,1,12,0.8,1389.050,M,-22.597,M,,*66"
52,0,0.000000,36.048206,"$GNGSA,A,3,25,5,29,2,21,26,,,,,,,1.8,0.8,1.6*26"
52,0,0.000000,36.101722,"$GNGSA,A,3,79,81,88,66,80,82,,,,,,,1.8,0.8,1.6*2F"
52,0,0.000000,36.200674,"$GPRMC,185625.00,A,4143.86829872,N,12130.62768716,W,0.003,0.000,090918,999.9000,E,A*1E"
52,0,0.000000,36.254909,"$GPGLL,4143.86829872,N,12130.62768716,W,185625.00,A,A*78"
52,0,0.000000,36.996739,"$GPGGA,185626.00,4143.86830666,N,12130.62768105,W,1,12,0.8,1389.048,M,-22.597,M,,*6B"
52,0,0.000000,37.048135,"$GNGSA,A,3,25,5,29,2,21,26,,,,,,,1.8,0.8,1.6*26"
52,0,0.000000,37.101658,"$GNGSA,A,3,79,81,88,66,80,82,,,,,,,1.8,0.8,1.6*2F"
52,0,0.000000,37.193967,"$GPRMC,185626.00,A,4143.86830666,N,12130.62768105,W,0.009,0.000,090918,999.9000,E,A*10"
52,0,0.000000,37.254815,"$GPGLL,4143.86830666,N,12130.62768105,W,185626.00,A,A*7C"
52,0,0.000000,37.996671,"$GPGGA,185627.00,4143.86831411,N,12130.62767532,W,1,12,0.8,1389.046,M,-22.597,M,,*68"
52,0,0.000000,38.048107,"$GNGSA,A,3,25,5,29,2,21,26,,,,,,,1.8,0.8,1.6*26"
52,0,0.000000,38.101599,"$GNGSA,A,3,79,81,88,66,80,82,,,,,,,1.8,0.8,1.6*2F"
52,0,0.000000,38.196074,"$GPRMC,185627.00,A,4143.86831411,N,12130.62767532,W,0.025,166.169,090918,999.9000,E,A*1C"
52,0,0.000000,38.256905,"$GPGLL,4143.86831411,N,12130.62767532,W,185627.00,A,A*71"
52,0,0.000000,38.996628,"$GPGGA,185628.00,4143.86832109,N,12130.62766991,W,1,12,0.8,1389.044,M,-22.597,M,,*6E"
52,0,0.000000,39.048028,"$GNGSA,A,3,25,5,29,2,21,26,,,,,,,1.8,0.8,1.6*26"
52,0,0.000000,39.101562,"$GNGSA,A,3,79,81,88,66,80,82,,,,,,,1.8,0.8,1.6*2F"
52,0,0.000000,39.195963,"$GPRMC,185628.00,A,4143.86832109,N,12130.62766991,W,0.011,312.691,090918,999.9000,E,A*1E"
52,0,0.000000,39.256832,"$GPGLL,4143.86832109,N,12130.62766991,W,185628.00,A,A*75"
52,0,0.000000,39.996661,"$GPGGA,185629.00,4143.86832772,N,12130.62766484,W,1,12,0.8,1389.043,M,-22.597,M,,*6B"
52,0,0.000000,40.048079,"$GNGSA,A,3,25,5,29,2,21,26,,,,,,,1.8,0.8,1.6*26"
52,0,0.000000,40.101618,"$GNGSA,A,3,79,81,88,66,80,82,,,,,,,1.8,0.8,1.6*2F"
52,0,0.000000,40.196005,"$GPRMC,185629.00,A,4143.86832772,N,12130.62766484,W,0.015,191.719,090918,999.9000,E,A*10"
52,0,0.000000,40.256892,"$GPGLL,4143.86832772,N,12130.62766484,W,185629.00,A,A*77"
52,0,0.000000,40.996599,"$GPGGA,185630.00,4143.86833407,N,12130.62766010,W,1,12,0.8,1389.041,M,-22.597,M,,*68"
52,0,0.000000,41.047978,"$GNGSA,A,3,25,5,29,2,21,26,,,,,,,1.7,0.8,1.6*29"
52,0,0.000000,41.101517,"$GNGSA,A,3,79,81,88,66,80,82,,,,,,,1.7,0.8,1.6*20"
52,0,0.000000,41.193816,"$GPRMC,185630.00,A,4143.86833407,N,12130.62766010,W,0.005,0.000,090918,999.9000,E,A*16"
52,0,0.000000,41.254669,"$GPGLL,4143.86833407,N,12130.62766010,W,185630.00,A,A*76"
52,0,0.000000,41.996566,"$GPGGA,185631.00,4143.86834009,N,12130.62765561,W,1,12,0.8,1389.040,M,-22.597,M,,*65"
52,0,0.000000,42.048000,"$GNGSA,A,3,25,5,29,2,21,26,,,,,,,1.7,0.8,1.6*29"
52,0,0.000000,42.101481,"$GNGSA,A,3,79,81,88,66,80,82,,,,,,,1.7,0.8,1.6*20"
52,0,0.000000,42.195933,"$GPRMC,185631.00,A,4143.86834009,N,12130.62765561,W,0.037,328.634,090918,999.9000,E,A*13"
52,0,0.000000,42.256753,"$GPGLL,4143.86834009,N,12130.62765561,W,185631.00,A,A*7A"
54,0,0.000000,42.999121,"$GPGGA,185632.00,4143.86834629,N,12130.62765126,W,1,12,0.8,1389.039,M,-22.597,M,,*6B"
55,0,0.000000,43.050556,"$GNGSA,A,3,25,5,29,2,21,26,,,,,,,1.7,0.8,1.6*29"
55,0,0.000000,43.104030,"$GNGSA,A,3,79,81,88,66,80,82,,,,,,,1.7,0.8,1.6*20"
56,0,0.000000,43.196410,"$GPRMC,185632.00,A,4143.86834629,N,12130.62765126,W,0.208,2.346,090918,999.9000,E,A*16"
56,0,0.000000,43.257314,"$GPGLL,4143.86834629,N,12130.62765126,W,185632.00,A,A*7A"
61,0,0.000000,43.996655,"$GPGGA,185633.00,4143.86835385,N,12130.62764659,W,1,12,0.8,1389.038,M,-22.597,M,,*67"
61,0,0.000000,44.056973,"$GNGSA,A,3,25,5,29,2,21,26,,,,,,,1.7,0.8,1.6*29"
62,0,0.000000,44.101464,"$GNGSA,A,3,79,81,88,66,80,82,,,,,,,1.7,0.8,1.6*20"
62,0,0.000000,44.194869,"$GPRMC,185633.00,A,4143.86835385,N,12130.62764659,W,0.331,31.506,090918,999.9000,E,A*22"
63,0,0.000000,44.255680,"$GPGLL,4143.86835385,N,12130.62764659,W,185633.00,A,A*77"
67,0,0.000000,44.996511,"$GPGGA,185634.00,4143.86836295,N,12130.62764038,W,1,12,0.8,1389.037,M,-22.597,M,,*6D"
68,0,0.000000,45.047950,"$GNGSA,A,3,25,5,29,2,21,26,,,,,,,1.7,0.8,1.5*2A"
68,0,0.000000,45.101485,"$GNGSA,A,3,79,81,88,66,80,82,,,,,,,1.7,0.8,1.5*23"
69,0,0.000000,45.194798,"$GPRMC,185634.00,A,4143.86836295,N,12130.62764038,W,0.350,24.032,090918,999.9000,E,A*26"
69,0,0.000000,45.255684,"$GPGLL,4143.86836295,N,12130.62764038,W,185634.00,A,A*72"
74,0,0.000000,45.996358,"$GPGGA,185635.00,4143.86837376,N,12130.62763306,W,1,12,0.8,1389.036,M,-22.597,M,,*69"
75,0,0.000000,46.047819,"$GNGSA,A,3,25,5,29,2,21,26,,,,,,,1.7,0.8,1.5*2A"
75,0,0.000000,46.101325,"$GNGSA,A,3,79,81,88,66,80,82,,,,,,,1.7,0.8,1.5*23"
76,0,0.000000,46.194661,"$GPRMC,185635.00,A,4143.86837376,N,12130.62763306,W,0.378,19.802,090918,999.9000,E,A*2C"
76,0,0.000000,46.255512,"$GPGLL,4143.86837376,N,12130.62763306,W,185635.00,A,A*77"
81,0,0.000000,46.996353,"$GPGGA,185636.00,4143.86838620,N,12130.62762468,W,1,12,0.8,1389.034,M,-22.597,M,,*6F"
82,0,0.000000,47.047812,"$GNGSA,A,3,25,5,29,2,21,26,,,,,,,1.7,0.8,1.5*2A"
82,0,0.000000,47.101240,"$GNGSA,A,3,79,81,88,66,80,82,,,,,,,1.7,0.8,1.5*23"
83,0,0.000000,47.194674,"$GPRMC,185636.00,A,4143.86838620,N,12130.62762468,W,0.500,34.579,090918,999.9000,E,A*2F"
83,0,0.000000,47.255482,"$GPGLL,4143.86838620,N,12130.62762468,W,185636.00,A,A*73"
89,0,0.000000,47.997539,"$GPGGA,185637.00,4143.86840044,N,12130.62761508,W,1,12,0.8,1389.033,M,-22.597,M,,*66"
89,0,0.000000,48.047790,"$GNGSA,A,3,25,5,29,2,21,26,,,,,,,1.7,0.8,1.5*2A"
91,0,0.000000,48.101290,"$GNGSA,A,3,79,81,88,66,80,82,,,,,,,1.7,0.8,1.5*23"
91,0,0.000000,48.194624,"$GPRMC,185637.00,A,4143.86840044,N,12130.62761508,W,0.363,27.675,090918,999.9000,E,A*2F"
92,0,0.000000,48.255499,"$GPGLL,4143.86840044,N,12130.62761508,W,185637.00,A,A*7D"
98,0,0.000000,48.996403,"$GPGGA,185638.00,4143.86920749,N,12130.62705481,W,1,12,0.8,1388.955,M,-22.597,M,,*6E"
99,0,0.000000,49.047878,"$GNGSA,A,3,25,5,29,2,21,26,,,,,,,1.7,0.8,1.5*2A"
99,0,0.000000,49.101411,"$GNGSA,A,3,79,81,88,66,80,82,,,,,,,1.7,0.8,1.5*23"
100,0,0.000000,49.194755,"$GPRMC,185638.00,A,4143.86920749,N,12130.62705481,W,0.618,31.890,090918,999.9000,E,A*24"
100,0,0.000000,49.255555,"$GPGLL,4143.86920749,N,12130.62705481,W,185638.00,A,A*7D"
106,0,0.000000,49.996388,"$GPGGA,185639.00,4143.86887841,N,12130.62722806,W,1,12,0.8,1388.996,M,-22.597,M,,*6D"
106,0,0.000000,50.047752,"$GNGSA,A,3,25,5,29,2,21,26,,,,,,,1.7,0.8,1.5*2A"
106,0,0.000000,50.101319,"$GNGSA,A,3,79,81,88,66,80,82,,,,,,,1.7,0.8,1.5*23"
107,0,0.000000,50.199299,"$GPRMC,185639.00,A,4143.86887841,N,12130.62722806,W,0.495,36.181,090918,999.9000,E,A*21"
107,0,0.000000,50.255512,"$GPGLL,4143.86887841,N,12130.62722806,W,185639.00,A,A*71"
113,0,0.000000,50.996291,"$GPGGA,185640.00,4143.86915080,N,12130.62703029,W,1,12,0.8,1389.000,M,-22.597,M,,*6D"
113,0,0.000000,51.047717,"$GNGSA,A,3,25,5,29,2,21,26,,,,,,,1.7,0.8,1.5*2A"
114,0,0.000000,51.102377,"$GNGSA,A,3,79,81,88,66,80,82,,,,,,,1.7,0.8,1.5*23"
114,0,0.000000,51.194568,"$GPRMC,185640.00,A,4143.86915080,N,12130.62703029,W,0.319,28.657,090918,999.9000,E,A*26"
115,0,0.000000,51.255479,"$GPGLL,4143.86915080,N,12130.62703029,W,185640.00,A,A*76"
121,0,0.000000,51.996375,"$GPGGA,185641.00,4143.86936707,N,12130.62687074,W,1,12,0.8,1388.955,M,-22.597,M,,*68"
122,0,0.000000,52.047744,"$GNGSA,A,3,25,5,29,2,21,26,,,,,,,1.7,0.8,1.5*2A"
122,0,0.000000,52.101312,"$GNGSA,A,3,79,81,88,66,80,82,,,,,,,1.7,0.8,1.5*23"
123,0,0.000000,52.194698,"$GPRMC,185641.00,A,4143.86936707,N,12130.62687074,W,0.405,27.732,090918,999.9000,E,A*2C"
123,0,0.000000,52.255483,"$GPGLL,4143.86936707,N,12130.62687074,W,185641.00,A,A*7B"
129,0,0.000000,53.000532,"$GPGGA,185642.00,4143.86952495,N,12130.62674175,W,1,12,0.8,1388.928,M,-22.597,M,,*67"
129,0,0.000000,53.050397,"$GNGSA,A,3,25,5,29,2,21,26,,,,,,,1.7,0.8,1.5*2A"
130,0,0.000000,53.103907,"$GNGSA,A,3,79,81,88,66,80,82,,,,,,,1.7,0.8,1.5*23"
130,0,0.000000,53.197271,"$GPRMC,185642.00,A,4143.86952495,N,12130.62674175,W,0.401,42.924,090918,999.9000,E,A*27"
131,0,0.000000,53.258184,"$GPGLL,4143.86952495,N,12130.62674175,W,185642.00,A,A*7E"
135,0,0.000000,53.996645,"$GPGGA,185643.00,4143.86964956,N,12130.62661908,W,1,12,0.8,1388.905,M,-22.597,M,,*68"
138,0,0.000000,54.048132,"$GNGSA,A,3,25,5,29,2,21,26,,,,,,,1.7,0.8,1.5*2A"
138,0,0.000000,54.101630,"$GNGSA,A,3,79,81,88,66,80,82,,,,,,,1.7,0.8,1.5*23"
139,0,0.000000,54.197981,"$GPRMC,185643.00,A,4143.86964956,N,12130.62661908,W,0.465,44.775,090918,999.9000,E,A*29"
139,0,0.000000,54.255832,"$GPGLL,4143.86964956,N,12130.62661908,W,185643.00,A,A*7E"
148,0,0.000000,54.996210,"$GPGGA,185644.00,4143.86978937,N,12130.62647988,W,1,12,0.8,1388.885,M,-22.597,M,,*60"
148,0,0.000000,55.047606,"$GNGSA,A,3,25,5,29,2,21,26,,,,,,,1.7,0.8,1.5*2A"
149,0,0.000000,55.101173,"$GNGSA,A,3,79,81,88,66,80,82,,,,,,,1.7,0.8,1.5*23"
149,0,0.000000,55.194519,"$GPRMC,185644.00,A,4143.86978937,N,12130.62647988,W,0.634,38.113,090918,999.9000,E,A*23"
151,0,0.000000,55.255371,"$GPGLL,4143.86978937,N,12130.62647988,W,185644.00,A,A*7F"
156,0,0.000000,55.996224,"$GPGGA,185645.00,4143.86992420,N,12130.62634667,W,1,12,0.8,1388.896,M,-22.597,M,,*66"
159,0,0.000000,56.047669,"$GNGSA,A,3,25,5,29,2,21,26,,,,,,,1.7,0.8,1.5*2A"
159,0,0.000000,56.101170,"$GNGSA,A,3,79,81,88,66,80,82,,,,,,,1.7,0.8,1.5*23"
159,0,0.000000,56.194520,"$GPRMC,185645.00,A,4143.86992420,N,12130.62634667,W,0.527,47.651,090918,999.9000,E,A*2F"
159,0,0.000000,56.255443,"$GPGLL,4143.86992420,N,12130.62634667,W,185645.00,A,A*7B"
169,0,0.000000,56.996208,"$GPGGA,185646.00,4143.87003976,N,12130.62617441,W,1,12,0.8,1388.896,M,-22.597,M,,*6C"
169,0,0.000000,57.047551,"$GNGSA,A,3,25,5,29,2,21,26,,,,,,,1.7,0.8,1.5*2A"
169,0,0.000000,57.101114,"$GNGSA,A,3,79,81,88,66,80,82,,,,,,,1.7,0.8,1.5*23"
171,0,0.000000,57.194440,"$GPRMC,185646.00,A,4143.87003976,N,12130.62617441,W,0.546,46.799,090918,999.9000,E,A*26"
172,0,0.000000,57.255373,"$GPGLL,4143.87003976,N,12130.62617441,W,185646.00,A,A*71"
176,0,0.000000,57.996122,"$GPGGA,185647.00,4143.87011213,N,12130.62597353,W,1,12,0.8,1388.885,M,-22.597,M,,*6B"
179,0,0.000000,58.047568,"$GNGSA,A,3,25,5,29,2,21,26,,,,,,,1.7,0.8,1.5*2A"
179,0,0.000000,58.101022,"$GNGSA,A,3,79,81,88,66,80,82,,,,,,,1.7,0.8,1.5*23"
182,0,0.000000,58.194462,"$GPRMC,185647.00,A,4143.87011213,N,12130.62597353,W,0.522,51.942,090918,999.9000,E,A*2F"
182,0,0.000000,58.255227,"$GPGLL,4143.87011213,N,12130.62597353,W,185647.00,A,A*74"
187,0,0.000000,58.995794,"$GPGGA,185648.00,4143.87025088,N,12130.62584676,W,1,12,0.8,1388.874,M,-22.597,M,,*6D"
190,0,0.000000,59.047820,"$GNGSA,A,3,25,5,29,2,21,26,,,,,,,1.7,0.8,1.5*2A"
190,0,0.000000,59.100843,"$GNGSA,A,3,79,81,88,66,80,82,,,,,,,1.7,0.8,1.5*23"
190,0,0.000000,59.194080,"$GPRMC,185648.00,A,4143.87025088,N,12130.62584676,W,0.570,42.656,090918,999.9000,E,A*28"
193,0,0.000000,59.255002,"$GPGLL,4143.87025088,N,12130.62584676,W,185648.00,A,A*7C"
199,0,0.000000,59.995977,"$GPGGA,185649.00,4143.87031002,N,12130.62565482,W,1,12,0.8,1388.875,M,-22.597,M,,*6C"
199,0,0.000000,60.047391,"$GNGSA,A,3,25,5,29,2,21,26,,,,,,,1.7,0.8,1.5*2A"
200,0,0.000000,60.100945,"$GNGSA,A,3,79,81,88,66,80,82,,,,,,,1.7,0.8,1.5*23"
201,0,0.000000,60.194300,"$GPRMC,185649.00,A,4143.87031002,N,12130.62565482,W,0.386,42.839,090918,999.9000,E,A*20"
201,0,0.000000,60.255160,"$GPGLL,4143.87031002,N,12130.62565482,W,185649.00,A,A*7C"
205,0,0.000000,60.995958,"$GPGGA,185650.00,4143.87037226,N,12130.62545691,W,1,11,0.8,1388.905,M,-22.597,M,,*61"
208,0,0.000000,61.047309,"$GNGSA,A,3,25,5,29,2,21,26,,,,,,,1.8,0.8,1.6*26"
208,0,0.000000,61.098750,"$GNGSA,A,3,79,81,88,66,82,,,,,,,,1.8,0.8,1.6*27"
211,0,0.000000,61.193264,"$GPRMC,185650.00,A,4143.87037226,N,12130.62545691,W,0.678,53.866,090918,999.9000,E,A*26"
211,0,0.000000,61.252957,"$GPGLL,4143.87037226,N,12130.62545691,W,185650.00,A,A*74"
218,0,0.000000,61.995751,"$GPGGA,185651.00,4143.87044200,N,12130.62524872,W,1,12,0.8,1388.934,M,-22.597,M,,*65"
220,0,0.000000,62.047161,"$GNGSA,A,3,25,5,29,2,21,26,,,,,,,1.7,0.8,1.5*2A"
220,0,0.000000,62.100727,"$GNGSA,A,3,79,81,88,66,80,82,,,,,,,1.7,0.8,1.5*23"
223,0,0.000000,62.194059,"$GPRMC,185651.00,A,4143.87044200,N,12130.62524872,W,0.612,56.406,090918,999.9000,E,A*20"
223,0,0.000000,62.254989,"$GPGLL,4143.87044200,N,12130.62524872,W,185651.00,A,A*71"
232,0,0.000000,62.998202,"$GPGGA,185652.00,4143.87047654,N,12130.62496270,W,1,10,0.9,1388.986,M,-22.597,M,,*6A"
232,0,0.000000,63.049604,"$GNGSA,A,3,25,5,29,2,21,26,,,,,,,1.9,0.9,1.6*26"
232,0,0.000000,63.098902,"$GNGSA,A,3,79,81,88,66,,,,,,,,,1.9,0.9,1.6*2D"
232,0,0.000000,63.192339,"$GPRMC,185652.00,A,4143.87047654,N,12130.62496270,W,0.603,61.196,090918,999.9000,E,A*2D"
232,0,0.000000,63.253151,"$GPGLL,4143.87047654,N,12130.62496270,W,185652.00,A,A*74"
241,0,0.000000,63.995688,"$GPGGA,185653.00,4143.87056965,N,12130.62478910,W,1,11,0.8,1389.044,M,-22.597,M,,*6D"
241,0,0.000000,64.047085,"$GNGSA,A,3,25,5,29,2,21,26,,,,,,,1.8,0.8,1.6*26"
244,0,0.000000,64.098542,"$GNGSA,A,3,79,81,88,66,82,,,,,,,,1.8,0.8,1.6*27"
244,0,0.000000,64.191859,"$GPRMC,185653.00,A,4143.87056965,N,12130.62478910,W,0.472,39.089,090918,999.9000,E,A*2A"
244,0,0.000000,64.252881,"$GPGLL,4143.87056965,N,12130.62478910,W,185653.00,A,A*75"
252,0,0.000000,64.995588,"$GPGGA,185654.00,4143.87063598,N,12130.62453363,W,1,11,0.8,1389.086,M,-22.597,M,,*6B"
254,0,0.000000,65.050451,"$GNGSA,A,3,25,5,29,2,21,26,,,,,,,1.8,0.8,1.6*26"
254,0,0.000000,65.098354,"$GNGSA,A,3,79,81,88,66,80,,,,,,,,1.8,0.8,1.6*25"
254,0,0.000000,65.191792,"$GPRMC,185654.00,A,4143.87063598,N,12130.62453363,W,0.794,50.453,090918,999.9000,E,A*25"
254,0,0.000000,65.252635,"$GPGLL,4143.87063598,N,12130.62453363,W,185654.00,A,A*7D"
262,0,0.000000,65.995837,"$GPGGA,185655.00,4143.87069410,N,12130.62431306,W,1,12,0.8,1389.157,M,-22.597,M,,*68"
265,0,0.000000,66.047264,"$GNGSA,A,3,25,5,29,2,21,26,,,,,,,1.7,0.8,1.5*2A"
265,0,0.000000,66.100690,"$GNGSA,A,3,79,81,88,66,80,82,,,,,,,1.7,0.8,1.5*23"
266,0,0.000000,66.194111,"$GPRMC,185655.00,A,4143.87069410,N,12130.62431306,W,0.501,66.287,090918,999.9000,E,A*2C"
266,0,0.000000,66.254914,"$GPGLL,4143.87069410,N,12130.62431306,W,185655.00,A,A*70"
272,0,0.000000,66.995540,"$GPGGA,185656.00,4143.87081204,N,12130.62418027,W,1,11,0.8,1389.216,M,-22.597,M,,*60"
276,0,0.000000,67.046976,"$GNGSA,A,3,25,5,29,2,21,26,,,,,,,1.8,0.8,1.6*26"
276,0,0.000000,67.098395,"$GNGSA,A,3,79,81,88,66,82,,,,,,,,1.8,0.8,1.6*27"
277,0,0.000000,67.191730,"$GPRMC,185656.00,A,4143.87081204,N,12130.62418027,W,0.561,58.135,090918,999.9000,E,A*20"
277,0,0.000000,67.252912,"$GPGLL,4143.87081204,N,12130.62418027,W,185656.00,A,A*7D"
284,0,0.000000,67.995624,"$GPGGA,185657.00,4143.87092688,N,12130.62405578,W,1,12,0.8,1389.241,M,-22.597,M,,*61"
286,0,0.000000,68.047041,"$GNGSA,A,3,25,5,29,2,21,26,,,,,,,1.7,0.8,1.5*2A"
286,0,0.000000,68.100605,"$GNGSA,A,3,79,81,88,66,80,82,,,,,,,1.7,0.8,1.5*23"
286,0,0.000000,68.193990,"$GPRMC,185657.00,A,4143.87092688,N,12130.62405578,W,0.679,52.445,090918,999.9000,E,A*22"
288,0,0.000000,68.254784,"$GPGLL,4143.87092688,N,12130.62405578,W,185657.00,A,A*7D"
295,0,0.000000,68.995513,"$GPGGA,185658.00,4143.87103330,N,12130.62385709,W,1,11,0.8,1389.262,M,-22.597,M,,*68"
297,0,0.000000,69.046880,"$GNGSA,A,3,25,5,29,2,21,26,,,,,,,1.8,0.8,1.6*26"
298,0,0.000000,69.098338,"$GNGSA,A,3,79,81,88,66,82,,,,,,,,1.8,0.8,1.6*27"
298,0,0.000000,69.191687,"$GPRMC,185658.00,A,4143.87103330,N,12130.62385709,W,0.541,47.778,090918,999.9000,E,A*28"
300,0,0.000000,69.252573,"$GPGLL,4143.87103330,N,12130.62385709,W,185658.00,A,A*76"
307,0,0.000000,69.995612,"$GPGGA,185659.00,4143.87112775,N,12130.62359923,W,1,12,0.8,1389.280,M,-22.597,M,,*64"
309,0,0.000000,70.047017,"$GNGSA,A,3,25,5,29,2,21,26,,,,,,,1.7,0.8,1.5*2A"
311,0,0.000000,70.109466,"$GNGSA,A,3,79,81,88,66,80,82,,,,,,,1.7,0.8,1.5*23"
312,0,0.000000,70.193924,"$GPRMC,185659.00,A,4143.87112775,N,12130.62359923,W,0.867,58.681,090918,999.9000,E,A*2B"
312,0,0.000000,70.254762,"$GPGLL,4143.87112775,N,12130.62359923,W,185659.00,A,A*75"
317,0,0.000000,70.995421,"$GPGGA,185700.00,4143.87117465,N,12130.62338040,W,1,12,0.8,1389.314,M,-22.597,M,,*69"
320,0,0.000000,71.046796,"$GNGSA,A,3,25,5,29,2,21,26,,,,,,,1.7,0.8,1.5*2A"
320,0,0.000000,71.100363,"$GNGSA,A,3,79,81,88,66,80,82,,,,,,,1.7,0.8,1.5*23"
322,0,0.000000,71.193785,"$GPRMC,185700.00,A,4143.87117465,N,12130.62338040,W,0.539,49.259,090918,999.9000,E,A*2D"
323,0,0.000000,71.259109,"$GPGLL,4143.87117465,N,12130.62338040,W,185700.00,A,A*74"
330,0,0.000000,71.995489,"$GPGGA,185701.00,4143.87127932,N,12130.62323024,W,1,12,0.8,1389.381,M,-22.597,M,,*60"
330,0,0.000000,72.046867,"$GNGSA,A,3,25,5,29,2,21,26,,,,,,,1.7,0.8,1.5*2A"
332,0,0.000000,72.100434,"$GNGSA,A,3,79,81,88,66,80,82,,,,,,,1.7,0.8,1.5*23"
333,0,0.000000,72.193825,"$GPRMC,185701.00,A,4143.87127932,N,12130.62323024,W,0.428,48.994,090918,999.9000,E,A*22"
333,0,0.000000,72.254636,"$GPGLL,4143.87127932,N,12130.62323024,W,185701.00,A,A*71"
339,0,0.000000,72.998633,"$GPGGA,185702.00,4143.87139442,N,12130.62308379,W,1,12,0.8,1389.393,M,-22.597,M,,*67"
342,0,0.000000,73.050028,"$GNGSA,A,3,25,5,29,2,21,26,,,,,,,1.7,0.8,1.5*2A"
342,0,0.000000,73.103495,"$GNGSA,A,3,79,81,88,66,80,82,,,,,,,1.7,0.8,1.5*23"
344,0,0.000000,73.197625,"$GPRMC,185702.00,A,4143.87139442,N,12130.62308379,W,0.627,63.806,090918,999.9000,E,A*28"
345,0,0.000000,73.257731,"$GPGLL,4143.87139442,N,12130.62308379,W,185702.00,A,A*75"
351,0,0.000000,73.995485,"$GPGGA,185703.00,4143.87147489,N,12130.62289152,W,1,12,0.8,1389.379,M,-22.597,M,,*6F"
351,0,0.000000,74.046799,"$GNGSA,A,3,25,5,29,2,21,26,,,,,,,1.7,0.8,1.5*2A"
352,0,0.000000,74.100308,"$GNGSA,A,3,79,81,88,66,80,82,,,,,,,1.7,0.8,1.5*23"
352,0,0.000000,74.193768,"$GPRMC,185703.00,A,4143.87147489,N,12130.62289152,W,0.498,51.983,090918,999.9000,E,A*2F"
353,0,0.000000,74.254552,"$GPGLL,4143.87147489,N,12130.62289152,W,185703.00,A,A*79"
359,0,0.000000,74.995276,"$GPGGA,185704.00,4143.87156780,N,12130.62271742,W,1,11,0.8,1389.409,M,-22.597,M,,*61"
362,0,0.000000,75.046689,"$GNGSA,A,3,25,5,29,2,21,26,,,,,,,1.8,0.8,1.6*26"
362,0,0.000000,75.098117,"$GNGSA,A,3,79,81,88,66,82,,,,,,,,1.8,0.8,1.6*27"
363,0,0.000000,75.191855,"$GPRMC,185704.00,A,4143.87156780,N,12130.62271742,W,0.749,61.794,090918,999.9000,E,A*26"
363,0,0.000000,75.252364,"$GPGLL,4143.87156780,N,12130.62271742,W,185704.00,A,A*74"
369,0,0.000000,75.995434,"$GPGGA,185705.00,4143.87172379,N,12130.62262616,W,1,12,0.8,1389.418,M,-22.597,M,,*65"
372,0,0.000000,76.046917,"$GNGSA,A,3,25,5,29,2,21,26,,,,,,,1.7,0.8,1.5*2A"
372,0,0.000000,76.100361,"$GNGSA,A,3,79,81,88,66,80,82,,,,,,,1.7,0.8,1.5*23"
372,0,0.000000,76.193832,"$GPRMC,185705.00,A,4143.87172379,N,12130.62262616,W,0.737,21.612,090918,999.9000,E,A*23"
375,0,0.000000,76.254590,"$GPGLL,4143.87172379,N,12130.62262616,W,185705.00,A,A*73"
382,0,0.000000,76.995381,"$GPGGA,185706.00,4143.87182539,N,12130.62242645,W,1,12,0.8,1389.435,M,-22.597,M,,*60"
383,0,0.000000,77.046735,"$GNGSA,A,3,25,5,29,2,21,26,,,,,,,1.7,0.8,1.5*2A"
383,0,0.000000,77.100254,"$GNGSA,A,3,79,81,88,66,80,82,,,,,,,1.7,0.8,1.5*23"
384,0,0.000000,77.193627,"$GPRMC,185706.00,A,4143.87182539,N,12130.62242645,W,0.449,36.970,090918,999.9000,E,A*2E"
384,0,0.000000,77.254537,"$GPGLL,4143.87182539,N,12130.62242645,W,185706.00,A,A*79"
388,0,0.000000,77.995356,"$GPGGA,185707.00,4143.87190564,N,12130.62228633,W,1,12,0.8,1389.457,M,-22.597,M,,*63"
391,0,0.000000,78.046740,"$GNGSA,A,3,25,5,29,2,21,26,,,,,,,1.7,0.8,1.5*2A"
393,0,0.000000,78.100220,"$GNGSA,A,3,79,81,88,66,80,82,,,,,,,1.7,0.8,1.5*23"
394,0,0.000000,78.193633,"$GPRMC,185707.00,A,4143.87190564,N,12130.62228633,W,0.770,59.777,090918,999.9000,E,A*20"
394,0,0.000000,78.254445,"$GPGLL,4143.87190564,N,12130.62228633,W,185707.00,A,A*7E"
398,0,0.000000,78.995327,"$GPGGA,185708.00,4143.87199358,N,12130.62216086,W,1,12,0.8,1389.450,M,-22.597,M,,*6E"
398,0,0.000000,79.046675,"$GNGSA,A,3,25,5,29,2,21,26,,,,,,,1.7,0.8,1.5*2A"
398,0,0.000000,79.100217,"$GNGSA,A,3,79,81,88,66,80,82,,,,,,,1.7,0.8,1.5*23"
399,0,0.000000,79.192555,"$GPRMC,185708.00,A,4143.87199358,N,12130.62216086,W,0.031,0.966,090918,999.9000,E,A*1A"
399,0,0.000000,79.253437,"$GPGLL,4143.87199358,N,12130.62216086,W,185708.00,A,A*74"
401,0,0.000000,79.995258,"$GPGGA,185709.00,4143.87203189,N,12130.62220457,W,1,12,0.8,1389.475,M,-22.597,M,,*6B"
401,0,0.000000,80.046700,"$GNGSA,A,3,25,5,29,2,21,26,,,,,,,1.7,0.8,1.5*2A"
401,0,0.000000,80.100197,"$GNGSA,A,3,79,81,88,66,80,82,,,,,,,1.7,0.8,1.5*23"
402,0,0.000000,80.194593,"$GPRMC,185709.00,A,4143.87203189,N,12130.62220457,W,0.326,343.380,090918,999.9000,E,A*1B"
402,0,0.000000,80.255475,"$GPGLL,4143.87203189,N,12130.62220457,W,185709.00,A,A*76"
404,0,0.000000,80.995376,"$GPGGA,185710.00,4143.87212752,N,12130.62217730,W,1,12,0.8,1389.488,M,-22.597,M,,*67"
404,0,0.000000,81.046779,"$GNGSA,A,3,25,5,29,2,21,26,,,,,,,1.7,0.8,1.5*2A"
404,0,0.000000,81.102535,"$GNGSA,A,3,79,81,88,66,80,82,,,,,,,1.7,0.8,1.5*23"
404,0,0.000000,81.192637,"$GPRMC,185710.00,A,4143.87212752,N,12130.62217730,W,0.245,9.630,090918,999.9000,E,A*12"
404,0,0.000000,81.253468,"$GPGLL,4143.87212752,N,12130.62217730,W,185710.00,A,A*78"
405,0,0.000000,81.995444,"$GPGGA,185711.00,4143.87213493,N,12130.62219489,W,1,12,0.8,1389.487,M,-22.597,M,,*69"
405,0,0.000000,82.046835,"$GNGSA,A,3,25,5,29,2,21,26,,,,,,,1.7,0.8,1.5*2A"
405,0,0.000000,82.100344,"$GNGSA,A,3,79,81,88,66,80,82,,,,,,,1.7,0.8,1.5*23"
405,0,0.000000,82.194831,"$GPRMC,185711.00,A,4143.87213493,N,12130.62219489,W,0.037,225.547,090918,999.9000,E,A*1B"
405,0,0.000000,82.255644,"$GPGLL,4143.87213493,N,12130.62219489,W,185711.00,A,A*79"
406,0,0.000000,82.998106,"$GPGGA,185712.00,4143.87214895,N,12130.62220776,W,1,12,0.8,1389.483,M,-22.597,M,,*6A"
406,0,0.000000,83.049564,"$GNGSA,A,3,25,5,29,2,21,26,,,,,,,1.7,0.8,1.5*2A"
406,0,0.000000,83.103042,"$GNGSA,A,3,79,81,88,66,80,82,,,,,,,1.7,0.8,1.5*23"
407,0,0.000000,83.196440,"$GPRMC,185712.00,A,4143.87214895,N,12130.62220776,W,0.017,39.216,090918,999.9000,E,A*22"
407,0,0.000000,83.257252,"$GPGLL,4143.87214895,N,12130.62220776,W,185712.00,A,A*7E"
418,0,0.000000,83.995541,"$GPGGA,185713.00,4143.87234809,N,12130.62210007,W,1,12,0.8,1389.508,M,-22.597,M,,*6C"
420,0,0.000000,84.046908,"$GNGSA,A,3,25,5,29,2,21,26,,,,,,,1.7,0.8,1.5*2A"
421,0,0.000000,84.100426,"$GNGSA,A,3,79,81,88,66,80,82,,,,,,,1.7,0.8,1.5*23"
421,0,0.000000,84.193837,"$GPRMC,185713.00,A,4143.87234809,N,12130.62210007,W,1.055,22.955,090918,999.9000,E,A*27"
421,0,0.000000,84.254709,"$GPGLL,4143.87234809,N,12130.62210007,W,185713.00,A,A*7A"
431,0,0.000000,84.995353,"$GPGGA,185714.00,4143.87257437,N,12130.62192781,W,1,12,0.8,1389.475,M,-22.597,M,,*64"
433,0,0.000000,85.046763,"$GNGSA,A,3,25,5,29,2,21,26,,,,,,,1.7,0.8,1.5*2A"
433,0,0.000000,85.100225,"$GNGSA,A,3,79,81,88,66,80,82,,,,,,,1.7,0.8,1.5*23"
435,0,0.000000,85.193607,"$GPRMC,185714.00,A,4143.87257437,N,12130.62192781,W,0.872,41.408,090918,999.9000,E,A*28"
438,0,0.000000,85.254510,"$GPGLL,4143.87257437,N,12130.62192781,W,185714.00,A,A*79"
448,0,0.000000,85.995348,"$GPGGA,185715.00,4143.87282016,N,12130.62180635,W,1,12,0.8,1389.428,M,-22.597,M,,*6F"
451,0,0.000000,86.046745,"$GNGSA,A,3,25,5,29,2,21,26,,,,,,,1.7,0.8,1.5*2A"
453,0,0.000000,86.100531,"$GNGSA,A,3,79,81,88,66,80,82,,,,,,,1.7,0.8,1.5*23"
453,0,0.000000,86.193648,"$GPRMC,185715.00,A,4143.87282016,N,12130.62180635,W,0.924,35.987,090918,999.9000,E,A*20"
453,0,0.000000,86.255769,"$GPGLL,4143.87282016,N,12130.62180635,W,185715.00,A,A*7A"
467,0,0.000000,86.995218,"$GPGGA,185716.00,4143.87305487,N,12130.62163620,W,1,12,0.8,1389.401,M,-22.597,M,,*6C"
470,0,0.000000,87.046659,"$GNGSA,A,3,25,5,29,2,21,26,,,,,,,1.7,0.8,1.5*2A"
470,0,0.000000,87.100127,"$GNGSA,A,3,79,81,88,66,80,82,,,,,,,1.7,0.8,1.5*23"
470,0,0.000000,87.193562,"$GPRMC,185716.00,A,4143.87305487,N,12130.62163620,W,1.051,22.174,090918,999.9000,E,A*20"
470,0,0.000000,87.254365,"$GPGLL,4143.87305487,N,12130.62163620,W,185716.00,A,A*72"
479,0,0.000000,87.995366,"$GPGGA,185717.00,4143.87324485,N,12130.62147066,W,1,12,0.8,1389.340,M,-22.597,M,,*6C"
481,0,0.000000,88.046715,"$GNGSA,A,3,25,5,29,2,21,26,,,,,,,1.7,0.8,1.5*2A"
483,0,0.000000,88.100284,"$GNGSA,A,3,79,81,88,66,80,82,,,,,,,1.7,0.8,1.5*23"
486,0,0.000000,88.193602,"$GPRMC,185717.00,A,4143.87324485,N,12130.62147066,W,1.028,21.301,090918,999.9000,E,A*2F"
486,0,0.000000,88.254443,"$GPGLL,4143.87324485,N,12130.62147066,W,185717.00,A,A*70"
497,0,0.000000,88.995250,"$GPGGA,185718.00,4143.87349024,N,12130.62133895,W,1,12,0.8,1389.321,M,-22.597,M,,*67"
499,0,0.000000,89.046601,"$GNGSA,A,3,25,5,29,2,21,26,,,,,,,1.7,0.8,1.5*2A"
501,0,0.000000,89.100164,"$GNGSA,A,3,79,81,88,66,80,82,,,,,,,1.7,0.8,1.5*23"
501,0,0.000000,89.192496,"$GPRMC,185718.00,A,4143.87349024,N,12130.62133895,W,0.847,8.765,090918,999.9000,E,A*1E"
501,0,0.000000,89.253297,"$GPGLL,4143.87349024,N,12130.62133895,W,185718.00,A,A*7C"
507,0,0.000000,94.994940,"$GPGGA,185724.00,4143.87360088,N,12130.62126335,W,1,12,0.8,1389.217,M,-22.597,M,,*64"
507,0,0.000000,95.046339,"$GNGSA,A,3,25,5,29,2,21,26,,,,,,,1.7,0.8,1.5*2A"
507,0,0.000000,95.099861,"$GNGSA,A,3,79,81,88,66,80,82,,,,,,,1.7,0.8,1.5*23"
507,0,0.000000,95.194302,"$GPRMC,185724.00,A,4143.87360088,N,12130.62126335,W,0.010,207.343,090918,999.9000,E,A*1E"
507,0,0.000000,95.255163,"$GPGLL,4143.87360088,N,12130.62126335,W,185724.00,A,A*7B"
507,0,0.000000,95.995112,"$GPGGA,185725.00,4143.87360340,N,12130.62126939,W,1,12,0.8,1389.191,M,-22.597,M,,*69"
507,0,0.000000,96.046491,"$GNGSA,A,3,25,5,29,2,21,26,,,,,,,1.7,0.8,1.5*2A"
507,0,0.000000,96.100005,"$GNGSA,A,3,79,81,88,66,80,82,,,,,,,1.7,0.8,1.5*23"
507,0,0.000000,96.192335,"$GPRMC,185725.00,A,4143.87360340,N,12130.62126939,W,0.008,0.000,090918,999.9000,E,A*16"
507,0,0.000000,96.253175,"$GPGLL,4143.87360340,N,12130.62126939,W,185725.00,A,A*7B"
507,0,0.000000,96.994884,"$GPGGA,185726.00,4143.87360566,N,12130.62126845,W,1,12,0.8,1389.169,M,-22.597,M,,*65"
507,0,0.000000,97.046306,"$GNGSA,A,3,25,5,29,2,21,26,,,,,,,1.7,0.8,1.5*2A"
507,0,0.000000,97.099816,"$GNGSA,A,3,79,81,88,66,80,82,,,,,,,1.7,0.8,1.5*23"
507,0,0.000000,97.192132,"$GPRMC,185726.00,A,4143.87360566,N,12130.62126845,W,0.008,0.000,090918,999.9000,E,A*1D"
507,0,0.000000,97.252979,"$GPGLL,4143.87360566,N,12130.62126845,W,185726.00,A,A*70"
507,0,0.000000,97.995084,"$GPGGA,185727.00,4143.87360570,N,12130.62127458,W,1,12,0.8,1389.156,M,-22.597,M,,*6E"
507,0,0.000000,98.046482,"$GNGSA,A,3,25,5,29,2,21,26,,,,,,,1.7,0.8,1.5*2A"
507,0,0.000000,98.099975,"$GNGSA,A,3,79,81,88,66,80,82,,,,,,,1.7,0.8,1.5*23"
507,0,0.000000,98.194396,"$GPRMC,185727.00,A,4143.87360570,N,12130.62127458,W,0.014,269.609,090918,999.9000,E,A*15"
507,0,0.000000,98.255254,"$GPGLL,4143.87360570,N,12130.62127458,W,185727.00,A,A*77"
507,0,0.000000,98.994856,"$GPGGA,185728.00,4143.87360564,N,12130.62127923,W,1,12,0.8,1389.141,M,-22.597,M,,*63"
507,0,0.000000,99.046253,"$GNGSA,A,3,25,5,29,2,21,26,,,,,,,1.7,0.8,1.5*2A"
507,0,0.000000,99.099778,"$GNGSA,A,3,79,81,88,66,80,82,,,,,,,1.7,0.8,1.5*23"
507,0,0.000000,99.194196,"$GPRMC,185728.00,A,4143.87360564,N,12130.62127923,W,0.028,212.505,090918,999.9000,E,A*12"
507,0,0.000000,99.255049,"$GPGLL,4143.87360564,N,12130.62127923,W,185728.00,A,A*7C"
507,0,0.000000,99.994971,"$GPGGA,185729.00,4143.87360685,N,12130.62128014,W,1,12,0.8,1389.124,M,-22.597,M,,*6F"
507,0,0.000000,100.046379,"$GNGSA,A,3,25,5,29,2,21,26,,,,,,,1.7,0.8,1.5*2A"
507,0,0.000000,100.099921,"$GNGSA,A,3,79,81,88,66,80,82,,,,,,,1.7,0.8,1.5*23"
507,0,0.000000,100.194328,"$GPRMC,185729.00,A,4143.87360685,N,12130.62128014,W,0.023,164.328,090918,999.9000,E,A*1D"
507,0,0.000000,100.255441,"$GPGLL,4143.87360685,N,12130.62128014,W,185729.00,A,A*73"
507,0,0.000000,100.994873,"$GPGGA,185730.00,4143.87361072,N,12130.62128245,W,1,12,0.8,1389.099,M,-22.597,M,,*69"
507,0,0.000000,101.046260,"$GNGSA,A,3,25,5,29,2,21,26,,,,,,,1.7,0.8,1.5*2A"
507,0,0.000000,101.109111,"$GNGSA,A,3,79,81,88,66,80,82,,,,,,,1.7,0.8,1.5*23"
507,0,0.000000,101.193154,"$GPRMC,185730.00,A,4143.87361072,N,12130.62128245,W,0.014,51.783,090918,999.9000,E,A*2A"
507,0,0.000000,101.253995,"$GPGLL,4143.87361072,N,12130.62128245,W,185730.00,A,A*72"
507,0,0.000000,101.994899,"$GPGGA,185731.00,4143.87361520,N,12130.62128449,W,1,12,0.8,1389.081,M,-22.597,M,,*69"
507,0,0.000000,102.046299,"$GNGSA,A,3,25,5,29,2,21,26,,,,,,,1.7,0.8,1.5*2A"
507,0,0.000000,102.099843,"$GNGSA,A,3,79,81,88,66,80,82,,,,,,,1.7,0.8,1.5*23"
507,0,0.000000,102.193175,"$GPRMC,185731.00,A,4143.87361520,N,12130.62128449,W,0.013,48.877,090918,999.9000,E,A*28"
507,0,0.000000,102.254037,"$GPGLL,4143.87361520,N,12130.62128449,W,185731.00,A,A*7B"
507,0,0.000000,102.997517,"$GPGGA,185732.00,4143.87361917,N,12130.62128755,W,1,12,0.8,1389.072,M,-22.597,M,,*60"
507,0,0.000000,103.048997,"$GNGSA,A,3,25,5,29,2,21,26,,,,,,,1.7,0.8,1.5*2A"
507,0,0.000000,103.102430,"$GNGSA,A,3,79,81,88,66,80,82,,,,,,,1.7,0.8,1.5*23"
507,0,0.000000,103.199357,"$GPRMC,185732.00,A,4143.87361917,N,12130.62128755,W,0.016,352.770,090918,999.9000,E,A*18"
507,0,0.000000,103.257723,"$GPGLL,4143.87361917,N,12130.62128755,W,185732.00,A,A*7E"
507,0,0.000000,103.994963,"$GPGGA,185733.00,4143.87362187,N,12130.62129519,W,1,12,0.8,1389.046,M,-22.597,M,,*6F"
507,0,0.000000,104.046372,"$GNGSA,A,3,25,5,29,2,21,26,,,,,,,1.7,0.8,1.5*2A"
507,0,0.000000,104.099898,"$GNGSA,A,3,79,81,88,66,80,82,,,,,,,1.7,0.8,1.5*23"
507,0,0.000000,104.194297,"$GPRMC,185733.00,A,4143.87362187,N,12130.62129519,W,0.026,291.041,090918,999.9000,E,A*18"
507,0,0.000000,104.255165,"$GPGLL,4143.87362187,N,12130.62129519,W,185733.00,A,A*76"
